[
    {
        "city_name": "Alix Lake",
        "year": 2021,
        "latitude": 52.3929953,
        "longitude": -113.1976626,
        "averageCellCount": 372078
    },
    {
        "city_name": "Astotin Lake",
        "year": 2021,
        "latitude": 53.6778846,
        "longitude": -112.8480967,
        "averageCellCount": 36631
    },
    {
        "city_name": "Baptiste Lake",
        "year": 2021,
        "latitude": 54.74591969999999,
        "longitude": -113.5545458,
        "averageCellCount": 25385
    },
    {
        "city_name": "Bonnie Lake",
        "year": 2021,
        "latitude": 54.1537421,
        "longitude": -111.8572281,
        "averageCellCount": 2326
    },
    {
        "city_name": "Buck Lake",
        "year": 2021,
        "latitude": 52.9526231,
        "longitude": -114.7954031,
        "averageCellCount": 3171342
    },
    {
        "city_name": "Buffalo Lake",
        "year": 2021,
        "latitude": 55.383333,
        "longitude": -119.016667,
        "averageCellCount": 54989
    },
    {
        "city_name": "Calling Lake",
        "year": 2021,
        "latitude": 55.210335,
        "longitude": -113.193325,
        "averageCellCount": 9166
    },
    {
        "city_name": "Cold Lake",
        "year": 2021,
        "latitude": 54.464249,
        "longitude": -110.1731779,
        "averageCellCount": 2797
    },
    {
        "city_name": "Floatingstone Lake",
        "year": 2021,
        "latitude": 54.2298124,
        "longitude": -111.6292957,
        "averageCellCount": 114
    },
    {
        "city_name": "Goose Lake",
        "year": 2021,
        "latitude": 54.3,
        "longitude": -115.116667,
        "averageCellCount": 855
    },
    {
        "city_name": "Gull Lake",
        "year": 2021,
        "latitude": 52.4639521,
        "longitude": -113.9361726,
        "averageCellCount": 39275
    },
    {
        "city_name": "Half Moon Lake",
        "year": 2021,
        "latitude": 53.45979089999999,
        "longitude": -113.0890625,
        "averageCellCount": 34420
    },
    {
        "city_name": "Haunted Lake",
        "year": 2021,
        "latitude": 52.402351,
        "longitude": -113.1497949,
        "averageCellCount": 3045
    },
    {
        "city_name": "Hawrelak Lake",
        "year": 2021,
        "latitude": 53.527866,
        "longitude": -113.5474445,
        "averageCellCount": 1356
    },
    {
        "city_name": "Hutch Lake",
        "year": 2021,
        "latitude": 58.74786669999999,
        "longitude": -117.2899253,
        "averageCellCount": 47086
    },
    {
        "city_name": "Iosegun Lake",
        "year": 2021,
        "latitude": 54.4633272,
        "longitude": -116.8438924,
        "averageCellCount": 569
    },
    {
        "city_name": "Isle Lake",
        "year": 2021,
        "latitude": 53.6344207,
        "longitude": -114.7072768,
        "averageCellCount": 2958
    },
    {
        "city_name": "Lac La Nonne",
        "year": 2021,
        "latitude": 53.917202,
        "longitude": -114.296767,
        "averageCellCount": 9621
    },
    {
        "city_name": "Lac Sante",
        "year": 2021,
        "latitude": 53.8448475,
        "longitude": -111.5499522,
        "averageCellCount": 948
    },
    {
        "city_name": "Lake McGregor",
        "year": 2021,
        "latitude": 50.423889,
        "longitude": -112.851667,
        "averageCellCount": 7529
    },
    {
        "city_name": "Lessard Lake",
        "year": 2021,
        "latitude": 53.7871918,
        "longitude": -114.6559369,
        "averageCellCount": 434036
    },
    {
        "city_name": "Lesser Slave Lake",
        "year": 2021,
        "latitude": 55.4312556,
        "longitude": -115.6038964,
        "averageCellCount": 354503
    },
    {
        "city_name": "Lower Thurien Lake",
        "year": 2021,
        "latitude": 53.9375223,
        "longitude": -111.359198,
        "averageCellCount": 8885
    },
    {
        "city_name": "Moonshine (Mirage) Lake",
        "year": 2021,
        "latitude": 53.9332706,
        "longitude": -116.5765035,
        "averageCellCount": 199
    },
    {
        "city_name": "Moose Lake",
        "year": 2021,
        "latitude": 54.2388078,
        "longitude": -110.9069332,
        "averageCellCount": 39910
    },
    {
        "city_name": "Nakamun Lake",
        "year": 2021,
        "latitude": 53.88748090000001,
        "longitude": -114.2193628,
        "averageCellCount": 7387
    },
    {
        "city_name": "Paddle River Reservoir",
        "year": 2021,
        "latitude": 54.0966135,
        "longitude": -114.2486742,
        "averageCellCount": 48616147
    },
    {
        "city_name": "Pigeon Lake",
        "year": 2021,
        "latitude": 53.0386329,
        "longitude": -114.0953302,
        "averageCellCount": 584
    },
    {
        "city_name": "Pine Lake",
        "year": 2021,
        "latitude": 52.109713,
        "longitude": -113.480689,
        "averageCellCount": 645
    },
    {
        "city_name": "Skeleton Lake",
        "year": 2021,
        "latitude": 54.61633759999999,
        "longitude": -112.7293681,
        "averageCellCount": 14458
    },
    {
        "city_name": "Steele (Cross) Lake",
        "year": 2021,
        "latitude": 53.9332706,
        "longitude": -116.5765035,
        "averageCellCount": 3085
    },
    {
        "city_name": "Stoney (Siler) Lake",
        "year": 2021,
        "latitude": 50.3944477,
        "longitude": -113.8176395,
        "averageCellCount": 38082
    },
    {
        "city_name": "Sturgeon Lake",
        "year": 2021,
        "latitude": 55.09054769999999,
        "longitude": -117.5170364,
        "averageCellCount": 7567
    },
    {
        "city_name": "Summerside Residents Association Lake",
        "year": 2021,
        "latitude": 53.4175573,
        "longitude": -113.4693289,
        "averageCellCount": 1185
    },
    {
        "city_name": "Sylvan Lake",
        "year": 2021,
        "latitude": 52.3065751,
        "longitude": -114.09728,
        "averageCellCount": 332
    },
    {
        "city_name": "Thunder Lake",
        "year": 2021,
        "latitude": 54.129071,
        "longitude": -114.7622376,
        "averageCellCount": 96229
    },
    {
        "city_name": "Wabamun Lake",
        "year": 2021,
        "latitude": 53.5465965,
        "longitude": -114.5554829,
        "averageCellCount": 3812
    },
    {
        "city_name": "Wapasu Lake",
        "year": 2021,
        "latitude": 53.3586581,
        "longitude": -111.6095854,
        "averageCellCount": 33038
    },
    {
        "city_name": "Winagami Lake",
        "year": 2021,
        "latitude": 55.6290111,
        "longitude": -116.7426476,
        "averageCellCount": 81593
    },
    {
        "city_name": "Wizard Lake",
        "year": 2021,
        "latitude": 53.1099464,
        "longitude": -113.8347615,
        "averageCellCount": 2532
    }
]